City_ID,City,Lat,Lng,Max Temp,Humidity,Cloudiness,Wind Speed,Country,Date
0,kapoeta,4.7717,33.5903,33.68,28,45,5.82,SS,1710439110
1,olonkinbyen,70.9221,-8.7187,-9.04,73,100,9.25,SJ,1710438860
2,waitangi,-43.9535,-176.5597,12.44,69,38,3.22,NZ,1710439110
3,akureyri,65.6835,-18.0878,-2.04,59,75,3.6,IS,1710439110
4,port mathurin,-19.6833,63.4167,26.55,79,1,9.7,MU,1710439110
5,olyokminsk,60.3736,120.4264,-14.14,94,100,2.33,RU,1710438986
6,muroto-misakicho,33.2833,134.15,12.13,59,3,1.57,JP,1710439111
7,iqaluit,63.7506,-68.5145,-14.15,72,100,1.03,CA,1710439111
8,urazovo,50.0836,38.0395,2.92,73,98,5.02,RU,1710439111
9,port-aux-francais,-49.35,70.2167,7.07,94,100,10.69,TF,1710439111
10,tomatlan,19.9333,-105.25,32.08,24,73,2.89,MX,1710439111
11,kununurra,-15.7667,128.7333,26.99,89,99,2.57,AU,1710439111
12,richards bay,-28.783,32.0377,20.89,83,100,3.74,ZA,1710438964
13,ilulissat,69.2167,-51.1,-14.49,80,100,1.04,GL,1710438962
14,kirensk,57.7853,108.1119,-8.91,97,100,1.34,RU,1710439112
15,kone,-21.0595,164.8658,25.44,91,93,1.97,NC,1710438906
16,codrington,-38.2667,141.9667,13.82,75,12,6.12,AU,1710439112
17,stanley,54.868,-1.6985,11.82,88,75,4.63,GB,1710439112
18,yellowknife,62.456,-114.3525,-5.88,87,75,1.03,CA,1710438861
19,st. john's,47.5649,-52.7093,2.31,90,100,8.23,CA,1710438830
20,ribeira grande,38.5167,-28.7,18.22,88,40,9.83,PT,1710439112
21,adamstown,-25.066,-130.1015,25.47,81,100,4.91,PN,1710438856
22,blackmans bay,-43.0167,147.3167,7.51,84,47,2.33,AU,1710439113
23,bilibino,68.0546,166.4372,-18.03,94,100,1.49,RU,1710439113
24,puerto natales,-51.7236,-72.4875,8.25,87,100,6.69,CL,1710439113
25,mersing,2.4312,103.8405,27.95,78,20,4.12,MY,1710439113
26,isiro,2.7739,27.616,28.02,41,56,1.03,CD,1710439113
27,acapulco de juarez,16.8634,-99.8901,26.23,60,47,3.79,MX,1710438944
28,kingston,17.997,-76.7936,30.53,66,20,8.75,JM,1710439113
29,brookings,44.3114,-96.7984,13.38,42,100,1.79,US,1710439113
30,uturoa,-16.7333,-151.4333,28.51,76,90,4.71,PF,1710438919
31,sisimiut,66.9395,-53.6735,-9.58,86,98,1.31,GL,1710439114
32,edinburgh of the seven seas,-37.0676,-12.3116,15.92,72,30,6.67,SH,1710438858
33,dhulikhel,27.6189,85.5529,13.75,33,0,1.23,NP,1710439114
34,mugia,43.1041,-9.2179,15.51,96,95,7.44,ES,1710439114
35,ketchikan,55.3422,-131.6461,7.41,99,100,4.11,US,1710438971
36,robertsport,6.7533,-11.3686,27.74,84,85,5.63,LR,1710439114
37,chonchi,-42.6128,-73.8092,16.18,54,65,2.84,CL,1710439114
38,bakchar,57.0186,82.0711,-10.64,94,100,3.46,RU,1710439115
39,puerto ayora,-0.7393,-90.3518,31.98,99,61,2.05,EC,1710439115
40,andergrove,-21.0833,149.1833,24.25,90,46,5.48,AU,1710439115
41,nadym,65.5333,72.5167,-23.75,100,41,3.3,RU,1710438305
42,khorixas,-20.3667,14.9667,28.12,17,0,8.06,NA,1710439115
43,papatowai,-46.5619,169.4708,7.4,87,100,5.45,NZ,1710438865
44,bethel,41.3712,-73.414,21.77,31,62,1.34,US,1710439115
45,tiksi,71.6872,128.8694,-29.19,97,70,2.73,RU,1710438906
46,talnakh,69.4865,88.3972,-17.11,95,99,3.82,RU,1710439115
47,palpa,-14.5336,-75.1856,31.27,43,83,3.12,PE,1710439116
48,tczew,54.0924,18.7779,12.03,77,95,3.3,PL,1710439116
49,gornozavodsk,58.3758,58.3211,-3.06,96,100,3.63,RU,1710439116
50,margaret river,-33.95,115.0667,18.07,82,1,4.15,AU,1710438868
51,cabo san lucas,22.8909,-109.9124,29.23,46,100,5.14,MX,1710439116
52,utrik,11.2278,169.8474,26.51,73,100,8.4,MH,1710438869
53,tigaon,13.6331,123.4968,22.47,97,61,1.53,PH,1710439116
54,kruisfontein,-34.0033,24.7314,20.49,84,66,2.94,ZA,1710439117
55,wailua homesteads,22.0669,-159.378,22.24,79,70,1.34,US,1710439030
56,porto novo,6.4965,2.6036,30.9,81,94,5.68,BJ,1710438903
57,palikir - national government center,6.9248,158.1611,27.44,76,100,8.37,FM,1710439117
58,udachny,66.4167,112.4,-32.07,98,71,1.95,RU,1710439066
59,jamestown,42.097,-79.2353,18.9,40,75,4.92,US,1710438880
60,salekhard,66.53,66.6019,-25.81,99,16,1.42,RU,1710439051
61,lillesand,58.2488,8.3778,7.41,93,75,4.12,NO,1710439117
62,selkirk,50.1436,-96.8845,3.94,84,100,1.79,CA,1710439117
63,tchintabaraden,15.8969,5.7985,34.54,12,54,2.92,NE,1710439117
64,najran,17.4924,44.1277,29.36,31,74,1.46,SA,1710439118
65,bodaybo,57.8506,114.1933,-17.46,99,100,0.87,RU,1710439118
66,hailar,49.2,119.7,-9.72,76,39,5.4,CN,1710439118
67,avarua,-21.2078,-159.775,27.03,83,40,1.03,CK,1710439118
68,levuka,50.1834,-105.4011,0.85,86,75,2.06,CA,1710439118
69,colonia,50.9333,6.95,16.6,63,0,4.63,DE,1710438983
70,nemuro,43.3236,145.575,-2.53,74,46,3.8,JP,1710439118
71,ishqoshim,36.7248,71.6133,-18.61,58,0,1.51,TJ,1710439119
72,sandnessjoen,66.0217,12.6316,4.12,87,75,10.8,NO,1710439119
73,touros,-5.1989,-35.4608,31.14,64,96,5.61,BR,1710439119
74,sabang,5.8933,95.3214,29.12,73,80,5.26,ID,1710439119
75,miles city,46.4083,-105.8406,4.17,54,100,3.84,US,1710439119
76,vadso,70.0744,29.7487,-3.51,93,100,3.6,NO,1710438861
77,bandrele,-12.9067,45.1914,28.86,79,20,4.12,YT,1710439119
78,albany,42.6001,-73.9662,18.78,42,62,1.79,US,1710438861
79,grand falls-windsor,48.9332,-55.6649,3.06,76,100,0.89,CA,1710439119
80,port lincoln,-34.7333,135.8667,17.74,80,35,9.11,AU,1710438902
81,columbia falls,48.3725,-114.1815,4.19,73,77,0.51,US,1710439120
82,lebu,-37.6167,-73.65,16.21,60,1,7.23,CL,1710439120
83,smithers,54.7804,-127.1743,6.18,70,75,1.03,CA,1710439120
84,palmer,42.1584,-72.3287,20.29,37,76,0.89,US,1710439120
85,hawaiian paradise park,19.5933,-154.9731,22.24,92,42,0.45,US,1710439120
86,arambol,15.6868,73.7045,26.94,73,0,5.52,IN,1710439120
87,urzhar,47.093,81.6294,-4.2,92,100,3.05,KZ,1710439121
88,san patricio,28.017,-97.5169,25.92,63,76,9.36,US,1710439121
89,sitka,57.0531,-135.33,4.38,93,100,2.41,US,1710438879
90,novyy urgal,51.0736,132.5642,-20.95,100,72,1.22,RU,1710439121
91,katsuura,35.1333,140.3,10.28,68,4,6.49,JP,1710439121
92,grytviken,-54.2811,-36.5092,4.8,95,69,2.76,GS,1710439121
93,ust-nera,64.5667,143.2,-30.86,100,62,1.58,RU,1710439121
94,cannonvale,-20.2833,148.7,25.66,88,43,3.86,AU,1710439121
95,khilok,51.3674,110.4676,-14.17,95,99,1.17,RU,1710439122
96,alofi,-19.0595,-169.9187,23.94,94,100,0.0,NU,1710439122
97,kidal,18.4411,1.4078,31.78,5,0,5.36,ML,1710439122
98,kodiak,57.79,-152.4072,-3.33,75,10,2.28,US,1710438863
99,vorgashor,67.5833,63.95,-25.37,100,78,1.97,RU,1710438885
100,lompoc,34.6391,-120.4579,18.8,53,0,2.68,US,1710439122
101,kavaratti,10.5669,72.642,27.98,73,1,5.72,IN,1710439122
102,ambalangoda,6.2355,80.0538,26.57,74,35,0.3,LK,1710439122
103,tlacotepec,20.0667,-97.8667,29.19,27,49,4.51,MX,1710439123
104,saint-pierre,-21.3393,55.4781,25.82,73,0,1.54,RE,1710438959
105,jeddah,21.5169,39.2192,29.92,66,0,2.57,SA,1710438521
106,gorodoviki,46.1353,41.9656,5.15,70,100,7.23,RU,1710439123
107,moshkovo,55.3053,83.6104,-11.6,92,100,5.73,RU,1710439123
108,kimbe,-5.5502,150.1429,25.2,95,100,0.85,PG,1710439123
109,kota bharu,6.1333,102.2386,26.97,83,20,1.54,MY,1710439123
110,kailua-kona,19.6406,-155.9956,24.72,72,3,0.94,US,1710439123
111,bredasdorp,-34.5322,20.0403,18.75,72,79,4.61,ZA,1710439042
112,petropavlovsk-kamchatsky,53.0452,158.6483,-0.67,86,100,22.35,RU,1710439124
113,bikenibeu village,1.3673,173.1241,25.98,100,100,2.57,KI,1710439124
114,qaqortoq,60.7167,-46.0333,-1.29,74,17,2.09,GL,1710438857
115,coronel oviedo,-25.4167,-56.45,42.83,21,4,3.38,PY,1710439124
116,aden,12.7794,45.0367,26.34,81,26,7.81,YE,1710439124
117,tuba city,36.135,-111.2399,6.32,59,58,2.68,US,1710439124
118,egilsstadir,65.2653,-14.3948,-3.05,80,75,2.06,IS,1710439125
119,colby,39.3958,-101.0524,4.03,81,100,8.23,US,1710439125
120,walvis bay,-22.9575,14.5053,20.53,68,1,5.14,NA,1710438867
121,cumnock,55.4544,-4.2664,6.82,99,100,1.41,GB,1710439091
122,minas de marcona,-15.2119,-75.1103,23.61,58,91,5.97,PE,1710439125
123,malango,-2.9627,119.9001,19.08,97,99,1.27,ID,1710439125
124,bikin,46.8161,134.26,-8.08,100,84,1.74,RU,1710439125
125,enewetak,11.3474,162.3373,26.27,78,100,8.84,MH,1710439125
126,joshimath,30.5667,79.5667,1.8,50,0,4.72,IN,1710439126
127,pagar alam,-4.0167,103.2667,20.82,90,100,1.24,ID,1710439126
128,twon-brass,4.3151,6.2418,27.32,82,100,3.82,NG,1710439126
129,iskateley,67.6803,53.1512,-14.43,96,77,3.13,RU,1710439126
130,constantia,44.1833,28.65,5.39,95,100,4.71,RO,1710438952
131,kilju,40.9642,129.3278,4.24,49,73,1.26,KP,1710439126
132,beykonak,36.3257,30.303,14.91,72,52,2.21,TR,1710439126
133,bubaque,11.2833,-15.8333,25.97,68,22,6.86,GW,1710438923
134,zaozersk,69.4005,32.4476,-4.23,97,100,0.5,RU,1710439127
135,lihue,21.9789,-159.3672,22.58,79,61,5.66,US,1710438858
136,invercargill,-46.4,168.35,7.23,86,99,2.68,NZ,1710439127
137,condado,21.8767,-79.8403,31.42,46,28,4.0,CU,1710439127
138,ola,59.5833,151.2833,-7.5,78,100,7.2,RU,1710439127
139,praia da vitoria,38.7333,-27.0667,20.14,68,40,8.57,PT,1710438950
140,dali,25.7,100.1833,8.43,63,13,2.56,CN,1710439028
141,suwayr,30.1171,40.3893,20.52,18,94,3.16,SA,1710439127
142,kill devil hills,36.0307,-75.676,24.01,23,0,2.06,US,1710439128
143,gorontalo,0.5412,123.0595,23.65,90,94,1.26,ID,1710438998
144,polyarnyy,69.1989,33.4478,-2.6,96,100,3.15,RU,1710438885
145,ar raqqah,35.95,39.0167,17.97,47,12,3.07,SY,1710439128
146,arraial do cabo,-22.9661,-42.0278,29.98,70,0,7.2,BR,1710439128
147,polna,49.487,15.7188,10.9,66,73,0.93,CZ,1710439128
148,zhezqazghan,47.7833,67.7667,-11.26,94,58,3.42,KZ,1710439128
149,crane,31.3974,-102.3501,23.04,19,0,2.87,US,1710439128
150,goure,13.9835,10.2704,33.88,10,84,3.33,NE,1710439129
151,mount pearl,47.5166,-52.7813,1.85,91,100,8.75,CA,1710439129
152,ambodifotatra,-16.9833,49.85,27.88,76,95,3.12,MG,1710439129
153,chazuta,-6.5742,-76.1367,31.47,66,94,1.17,PE,1710439129
154,villanueva,15.3167,-88.0,33.91,45,20,1.03,HN,1710439129
155,badger,64.8,-147.5333,-15.57,78,100,0.45,US,1710439129
156,afaahiti,-17.75,-149.2833,27.93,77,98,5.91,PF,1710439129
157,tazovsky,67.4667,78.7,-17.74,97,100,3.75,RU,1710438963
158,peniscola,40.3359,0.3613,18.15,85,11,1.11,ES,1710439130
159,chernogorsk,53.8236,91.2842,-5.24,63,0,4.0,RU,1710439130
160,kralendijk,12.15,-68.2667,26.9,86,58,10.14,BQ,1710439130
161,antofagasta,-23.65,-70.4,20.6,77,73,4.19,CL,1710439053
162,carbonear,47.7332,-53.2148,2.56,83,83,6.79,CA,1710439130
163,east london,-33.0153,27.9116,19.52,94,20,3.09,ZA,1710438881
164,oyama,36.3,139.8,10.88,49,2,0.82,JP,1710438935
165,erdenet,49.0333,104.0833,-8.04,91,100,1.5,MN,1710439130
166,west island,-12.1568,96.8225,26.99,74,100,3.09,CC,1710439131
167,uirauna,-6.5183,-38.4122,31.42,54,82,2.43,BR,1710439131
168,whitehorse,60.7161,-135.0538,2.83,80,40,8.75,CA,1710439131
169,pisco,-13.7,-76.2167,25.03,73,0,4.12,PE,1710439131
170,shakawe,-18.3667,21.85,27.55,41,66,2.34,BW,1710439131
171,christchurch,-43.5333,172.6333,10.82,80,90,1.03,NZ,1710439131
172,port elizabeth,-33.918,25.5701,21.72,84,0,2.57,ZA,1710438902
173,acarau,-2.8856,-40.12,29.74,72,100,5.33,BR,1710439131
174,zaraza,9.3503,-65.3245,38.73,25,59,3.28,VE,1710439132
175,aswan,24.0934,32.907,31.61,8,0,3.6,EG,1710439132
176,mahibadhoo,3.7833,72.9667,28.4,69,3,2.38,MV,1710439132
177,scottburgh,-30.2867,30.7532,20.22,83,98,1.8,ZA,1710438607
178,vilyuysk,63.7553,121.6247,-31.11,100,99,0.89,RU,1710439132
179,college,64.8569,-147.8028,-15.52,70,100,1.4,US,1710439132
180,harper,4.375,-7.7169,29.0,77,90,3.93,LR,1710439132
181,robore,-18.3333,-59.75,34.05,52,40,5.14,BO,1710439133
182,klyuchi,52.2667,79.1667,-11.25,91,91,4.43,RU,1710439133
183,orapa,-21.2833,25.3667,29.7,24,48,0.68,BW,1710439133
184,visakhapatnam,17.69,83.2093,25.97,80,20,3.79,IN,1710438847
185,gadzhiyevo,69.2551,33.3362,-2.7,97,100,2.66,RU,1710439133
186,lakatoro,-16.0999,167.4164,26.66,89,63,1.25,VU,1710439133
187,howard springs,-12.497,131.047,26.95,97,100,4.28,AU,1710439133
188,itoman,26.1247,127.6694,17.01,72,76,1.54,JP,1710439134
189,hithadhoo,-0.6,73.0833,28.43,75,11,5.34,MV,1710439134
190,sancaktepe,41.0024,29.2319,11.99,76,75,2.57,TR,1710438511
191,longyearbyen,78.2186,15.6401,-22.09,54,20,5.14,SJ,1710438863
192,anadyr,64.75,177.4833,-14.72,85,100,3.0,RU,1710439134
193,punta arenas,-53.15,-70.9167,9.06,64,75,10.29,CL,1710439134
194,esikhaleni,-28.871,31.8996,21.17,82,100,3.76,ZA,1710438934
195,vyazniki,56.25,42.1667,-2.88,91,98,4.78,RU,1710438672
196,tura,25.5198,90.2201,21.48,27,0,1.97,IN,1710439135
197,phumi veal sre,10.9808,104.7783,27.05,72,96,4.61,KH,1710439135
198,kharan,28.5833,65.4167,16.26,35,0,4.85,PK,1710439135
199,purpe,64.4803,76.6897,-19.48,100,82,3.89,RU,1710439135
200,chehalis,46.662,-122.964,9.25,100,40,2.06,US,1710439135
201,tsiombe,-25.3,45.4833,24.24,86,90,1.94,MG,1710438943
202,marondera,-18.1853,31.5519,17.5,86,96,1.13,ZW,1710439135
203,tolanaro,-25.0319,46.9987,22.04,94,75,5.14,MG,1710439136
204,troitsko-pechorsk,62.7084,56.1964,-17.96,100,73,1.54,RU,1710439136
205,kerikeri,-35.2268,173.9474,13.84,92,30,2.95,NZ,1710439136
206,souillac,-20.5167,57.5167,27.21,83,75,6.69,MU,1710439136
207,derbent,42.0678,48.2899,6.64,91,100,0.3,RU,1710438546
208,jiagedaqi,50.4167,124.1167,-5.77,85,72,3.4,CN,1710439136
209,bengkulu,-3.8004,102.2655,25.42,88,100,2.13,ID,1710439136
210,hasaki,35.7333,140.8333,5.22,53,1,4.62,JP,1710439136
211,abdurahmoni jomi,37.9464,68.8088,7.16,76,20,2.0,TJ,1710439137
212,hermanus,-34.4187,19.2345,19.33,71,74,5.04,ZA,1710439137
213,kuybyshev,55.4475,78.3218,-10.95,95,99,4.18,RU,1710439137
214,chernyshevskiy,63.0128,112.4714,-30.83,100,83,1.2,RU,1710439137
215,weatherford,32.7593,-97.7972,25.59,74,100,6.08,US,1710439137
216,trinidad,-14.8333,-64.9,33.99,66,40,3.09,BO,1710439137
217,saint-philippe,-21.3585,55.7679,25.77,87,83,6.04,RE,1710439137
218,banda aceh,5.5577,95.3222,26.17,82,77,3.92,ID,1710439137
219,punta cana,18.5818,-68.4043,28.87,65,40,7.2,DO,1710438904
220,talakan,50.3167,130.3667,-11.55,96,97,1.69,RU,1710439138
221,kingisepp,59.3733,28.6134,3.55,83,96,6.29,RU,1710439138
222,haiku-pauwela,20.9219,-156.3051,21.13,94,69,0.89,US,1710439138
223,ngara,-2.5122,30.6558,15.41,89,71,0.73,TZ,1710439138
224,vredendal,-31.6683,18.5012,19.95,51,81,5.17,ZA,1710439138
225,el calafate,-50.3408,-72.2768,4.78,95,100,2.3,AR,1710439138
226,ixmiquilpan,20.4833,-99.2333,28.29,14,28,1.04,MX,1710439139
227,ushuaia,-54.8,-68.3,8.81,49,40,2.57,AR,1710439139
228,guerrero negro,27.9769,-114.0611,17.1,58,79,5.79,MX,1710439139
229,klaksvik,62.2266,-6.589,2.51,77,100,8.93,FO,1710438914
230,thinadhoo,0.5333,72.9333,28.36,71,9,3.67,MV,1710439139
231,shar,49.5886,81.0453,-15.53,98,62,2.15,KZ,1710439139
232,almyros,39.1822,22.7594,14.7,63,75,4.12,GR,1710439139
233,susuman,62.7833,148.1667,-22.79,99,100,1.79,RU,1710439139
234,la ronge,55.1001,-105.2842,-5.88,86,100,2.06,CA,1710439140
235,vila velha,-20.3297,-40.2925,30.97,78,40,5.14,BR,1710439100
236,nguigmi,14.2495,13.1092,30.86,21,85,4.52,NE,1710439140
237,rio grande,-32.035,-52.0986,32.06,53,4,4.92,BR,1710439140
238,taro,-8.3862,115.28,24.0,100,100,1.73,ID,1710439140
239,noosa heads,-26.3833,153.15,20.74,83,70,4.42,AU,1710439140
240,tshabong,-26.05,22.45,26.1,10,1,4.87,BW,1710439141
241,zinjibar,13.1287,45.3807,26.1,81,25,5.9,YE,1710439141
242,patrocinio,-18.9439,-46.9925,29.89,49,31,0.93,BR,1710439141
243,vernon,50.2581,-119.2691,6.53,61,30,1.03,CA,1710439141
244,buin,-33.7333,-70.75,30.82,15,0,2.94,CL,1710439141
245,aykhal,66.0,111.5,-29.66,100,64,2.37,RU,1710439141
246,lazaro cardenas,17.9583,-102.2,27.95,51,28,3.44,MX,1710439142
247,kutum,14.2,24.6667,29.72,12,100,4.94,SD,1710439142
248,sevastopol,44.6,33.5333,8.89,61,43,1.65,UA,1710438733
249,alupka,44.4167,34.05,9.14,88,70,1.24,UA,1710439142
250,puerto baquerizo moreno,-0.9,-89.6,25.55,100,100,1.03,EC,1710439142
251,matca,45.85,27.5333,5.27,71,100,5.11,RO,1710439142
252,magumeri,12.1131,12.8274,33.46,10,100,3.65,NG,1710439142
253,carutapera,-1.195,-46.02,29.1,74,100,3.77,BR,1710439142
254,weno,7.4515,151.8468,27.84,79,100,7.08,FM,1710439143
255,usinsk,65.9939,57.5281,-15.22,96,92,5.04,RU,1710439143
256,testour,36.5513,9.4431,17.24,71,0,2.34,TN,1710439143
257,ormond-by-the-sea,29.3491,-81.0665,26.17,54,0,3.6,US,1710439143
258,calama,-22.4667,-68.9333,28.27,15,0,9.77,CL,1710439143
259,portland,45.5234,-122.6762,11.66,74,21,2.24,US,1710439001
260,santiago de cao,-7.9589,-79.2392,24.07,78,68,5.66,PE,1710439143
261,waingapu,-9.6567,120.2641,26.13,89,100,6.41,ID,1710439143
262,atar,20.5169,-13.0499,33.83,9,0,5.91,MR,1710439144
263,aydarken,39.9443,71.3429,-8.5,63,51,3.88,KG,1710439144
264,soure,-0.7167,-48.5233,28.92,79,86,4.55,BR,1710439144
265,bissau,11.8636,-15.5977,37.06,32,41,2.06,GW,1710439144
266,bandon,51.7469,-8.7425,11.77,93,100,8.36,IE,1710438957
267,santa ana,33.7456,-117.8678,19.96,20,11,11.18,US,1710439144
268,semenivka,52.1783,32.5818,2.63,74,56,3.26,UA,1710439144
269,castillos,-34.1667,-53.8333,32.84,45,95,1.72,UY,1710439144
270,thompson,55.7435,-97.8558,-7.91,79,100,1.54,CA,1710439145
271,termoli,41.9888,14.9895,11.82,66,39,1.37,IT,1710438965
272,lefkada,38.8275,20.7019,14.95,72,20,6.69,GR,1710438979
273,palmares do sul,-30.2578,-50.5097,34.04,39,15,0.74,BR,1710439145
274,faya-largeau,17.9257,19.1043,31.97,7,94,4.58,TD,1710439145
275,faranah,10.0404,-10.7434,38.89,12,65,2.72,GN,1710439145
276,tofol,5.3248,163.0078,28.18,78,99,8.87,FM,1710439145
277,jaisalmer,26.9147,70.9181,23.93,19,0,3.27,IN,1710439030
278,priozersk,61.0393,30.1291,4.49,85,100,8.87,RU,1710439145
279,cromwell,41.5951,-72.6454,22.59,36,63,0.45,US,1710439146
280,el granada,37.5027,-122.4694,17.33,33,0,6.17,US,1710439146
281,vilyuchinsk,52.9306,158.4028,0.15,93,100,1.0,RU,1710439146
282,langfang,39.5097,116.6947,11.96,34,0,4.55,CN,1710439146
283,flying fish cove,-10.4217,105.6791,25.82,83,75,3.6,CX,1710439146
284,aasiaat,68.7098,-52.8699,-14.44,90,100,0.29,GL,1710439146
285,mahina,-17.5065,-149.489,28.87,70,0,4.12,PF,1710439146
286,livadeia,38.435,22.8739,13.97,78,30,0.49,GR,1710438975
287,kenai,60.5544,-151.2583,-7.14,95,89,1.5,US,1710439147
288,saipan,15.1355,145.701,26.35,74,100,8.59,MP,1710439147
289,kani keli,-12.9536,45.1033,28.59,76,47,4.94,YT,1710439147
290,bonthe,7.5264,-12.505,28.46,72,55,5.71,SL,1710438892
291,isafjordur,66.0755,-23.124,-1.98,64,75,8.23,IS,1710439147
292,xinyuan,37.3,99.0,-3.03,60,100,0.56,CN,1710439147
293,usogorsk,63.4106,48.6872,-0.74,96,100,4.44,RU,1710439147
294,pacific grove,36.6177,-121.9166,17.16,33,0,3.13,US,1710438946
295,salinas,36.6777,-121.6555,17.78,28,0,4.06,US,1710439148
296,rexburg,43.826,-111.7897,5.3,81,40,3.14,US,1710439148
297,xai-xai,-25.0519,33.6442,24.62,86,95,7.46,MZ,1710439148
298,ancud,-41.8697,-73.8203,13.93,62,76,2.88,CL,1710439148
299,remire-montjoly,4.9167,-52.2667,31.02,66,75,6.69,GF,1710439148
300,tateyama,34.9833,139.8667,10.05,68,4,5.28,JP,1710439148
301,namsos,64.4662,11.4957,5.03,87,75,8.75,NO,1710439148
302,hamilton,39.1834,-84.5333,22.35,68,100,6.17,US,1710439149
303,roma,43.2128,-75.4557,16.71,41,56,0.89,US,1710438788
304,tanout,14.9709,8.8879,34.3,10,61,4.75,NE,1710439149
305,mococa,-21.4678,-47.0047,36.42,29,9,0.9,BR,1710439149
306,isangel,-19.55,169.2667,26.14,91,98,2.58,VU,1710439149
307,tamanrasset,22.785,5.5228,23.95,8,0,8.75,DZ,1710439149
308,paphos,34.7667,32.4167,15.88,67,40,2.06,CY,1710439149
309,lau,9.2167,11.2833,36.98,16,83,1.79,NG,1710439149
310,margate,51.3813,1.3862,13.26,76,89,3.13,GB,1710439150
311,kuacjok,8.3002,27.9903,33.66,28,69,2.7,SS,1710439150
312,natal,-5.795,-35.2094,32.36,66,40,5.14,BR,1710439150
313,fale old settlement,-9.3852,-171.2468,29.0,77,14,4.22,TK,1710439150
314,chokwe,-24.5333,32.9833,22.86,91,100,4.3,MZ,1710439150
315,borzya,50.3833,116.5167,-16.75,93,14,2.26,RU,1710439150
316,georgetown,5.4112,100.3354,29.97,79,20,0.51,MY,1710439150
317,an nuhud,12.7,28.4333,32.74,10,59,2.36,SD,1710439150
318,paita,-5.0892,-81.1144,27.8,63,41,5.7,PE,1710439151
319,fort st. john,56.2499,-120.8529,4.94,60,75,5.14,CA,1710439151
320,suva,-18.1416,178.4415,24.71,100,75,0.0,FJ,1710438908
321,kargasok,59.0556,80.8572,-13.35,97,99,1.79,RU,1710439151
322,labytnangi,66.6572,66.4183,-24.0,96,23,1.98,RU,1710439151
323,villa gesell,-37.2639,-56.973,25.59,65,14,8.63,AR,1710439058
324,kapa'a,22.0752,-159.319,22.99,78,69,1.34,US,1710439151
325,volchikha,52.0333,80.3833,-11.43,97,93,3.7,RU,1710439152
326,daru,-9.0763,143.2092,25.17,90,98,3.35,PG,1710439152
327,atafu village,-8.5421,-172.5159,29.22,74,12,5.42,TK,1710439152
328,fort bragg,35.139,-79.006,27.58,28,1,1.79,US,1710439152
329,nueva loja,0.0847,-76.8828,25.01,94,75,1.54,EC,1710439152
330,karpenisi,38.9167,21.7833,3.9,80,45,0.45,GR,1710439152
331,al hudaydah,14.7978,42.9545,27.63,74,8,7.31,YE,1710439152
332,kristiansund,63.1115,7.732,6.36,70,75,14.4,NO,1710439152
333,vorkuta,67.5,64.0,-25.22,100,73,2.06,RU,1710438904
334,sinan,34.8262,126.1086,2.06,71,0,2.39,KR,1710439153
335,higuera de zaragoza,25.95,-109.2833,26.02,39,23,6.67,MX,1710439153
336,nicoya,10.1483,-85.452,37.59,29,6,2.36,CR,1710439153
337,mbaiki,3.8678,17.9892,25.95,67,98,0.93,CF,1710439153
338,bojia,26.4672,111.9681,13.2,97,87,1.47,CN,1710439153
339,dul'durga,50.6761,113.5931,-8.53,79,67,1.87,RU,1710439153
340,keflavik,64.0049,-22.5624,2.95,64,100,6.69,IS,1710439154
341,san pedro,14.35,121.0167,26.86,79,20,4.47,PH,1710439154
342,muisne,0.6,-80.0333,28.11,78,64,4.59,EC,1710439154
343,marsabit,2.3284,37.9899,26.7,30,21,4.46,KE,1710439154
344,sungjibaegam,41.2428,128.7989,-1.84,50,23,6.19,KP,1710439154
345,nikko,36.75,139.6167,-1.11,71,5,3.48,JP,1710439154
346,callao,-12.0667,-77.15,24.16,73,40,4.63,PE,1710439154
347,labrador city,52.9463,-66.9114,0.95,86,100,3.09,CA,1710439155
348,la passe,45.5549,-0.8967,18.13,78,39,1.75,FR,1710438912
349,isabela,6.7085,121.9711,25.55,67,100,1.23,PH,1710439155
350,mandalgovi,45.7625,106.2708,-3.7,77,35,5.93,MN,1710439155
351,mweka,-4.85,21.5667,24.51,73,69,0.59,CD,1710439155
352,nogliki,51.8333,143.1667,-14.25,90,57,2.68,RU,1710439155
353,coquimbo,-29.9533,-71.3436,19.85,68,0,6.17,CL,1710438859
354,rongelap,11.1635,166.8941,26.33,77,97,7.78,MH,1710439155
355,newman,37.3138,-121.0208,14.57,43,0,7.15,US,1710439156
356,sassandra,4.95,-6.0833,28.77,80,94,4.87,CI,1710439156
357,ebon,4.582,168.6964,27.99,82,100,9.14,MH,1710439156
358,kuraymah,18.55,31.85,33.05,8,20,7.33,SD,1710439156
359,buala,-8.145,159.5921,27.21,84,100,1.77,SB,1710439156
360,dudinka,69.4058,86.1778,-16.88,96,99,5.7,RU,1710439156
361,malanje,-9.5402,16.341,21.09,92,22,1.35,AO,1710439156
362,quellon,-43.1167,-73.6167,14.06,64,72,3.63,CL,1710439156
363,chom thong,18.4174,98.6743,26.16,39,41,1.38,TH,1710439157
364,hongjiang,27.11,109.9956,13.92,96,92,0.82,CN,1710439157
365,fort mcmurray,56.7268,-111.381,4.77,56,0,4.63,CA,1710439157
366,lorengau,-2.0226,147.2712,28.08,80,100,4.96,PG,1710439157
367,san antonio de pale,-1.4014,5.6325,28.23,71,100,5.5,GQ,1710439157
368,port hedland,-20.3167,118.5667,29.03,84,40,3.09,AU,1710438955
369,abu zabad,12.35,29.25,35.47,9,63,3.63,SD,1710439157
370,mount isa,-20.7333,139.5,19.87,77,30,0.0,AU,1710439157
371,challapata,-18.9,-66.7667,15.95,53,90,1.38,BO,1710439158
372,muynoq,43.7683,59.0214,2.98,46,3,4.96,UZ,1710439158
373,garachico,28.7781,-17.7646,19.16,68,75,2.57,ES,1710439158
374,carnarvon,-24.8667,113.6333,27.3,70,15,5.05,AU,1710439158
375,saskatoon,52.1168,-106.6345,-2.01,100,100,4.12,CA,1710439158
376,kasane,-17.8167,25.15,23.16,60,45,2.04,BW,1710439158
377,buka,40.8108,69.1986,-0.82,86,74,2.48,UZ,1710439158
378,tisaiyanvilai,8.3333,77.8833,26.64,80,23,3.17,IN,1710439158
379,perry,37.2506,-83.1999,25.1,46,94,4.68,US,1710439159
380,arteche,12.2645,125.4048,24.31,89,100,3.22,PH,1710439159
381,igarka,67.4667,86.5833,-25.46,100,81,2.86,RU,1710439159
382,hadibu,12.65,54.0333,26.18,75,1,3.55,YE,1710439159
383,cullinan,-25.6709,28.5236,25.1,58,43,5.09,ZA,1710439130
384,namibe,-15.1961,12.1522,23.77,78,32,3.0,AO,1710439159
385,wenchang,30.904,118.4887,7.92,92,18,1.96,CN,1710439159
386,fisterra,42.9049,-9.2629,15.42,95,87,7.14,ES,1710439159
387,zemio,5.0314,25.1361,31.12,31,68,2.63,CF,1710439160
388,salalah,17.0151,54.0924,25.3,72,0,1.07,OM,1710439160
389,rimouski,48.4488,-68.524,3.1,98,100,2.74,CA,1710439160
390,charles city,43.0664,-92.6724,10.98,100,0,2.57,US,1710439160
391,basco,20.4487,121.9702,23.28,81,100,7.85,PH,1710439160
392,ipilan,8.8431,117.9033,24.65,84,77,2.98,PH,1710439160
393,cururupu,-1.8283,-44.8683,31.44,58,98,2.89,BR,1710439160
394,magadan,59.5667,150.8,-8.22,85,100,5.39,RU,1710439160
395,notodden,59.5594,9.2585,9.92,50,0,1.54,NO,1710439161
396,mar del plata,-38.0023,-57.5575,26.01,66,0,6.26,AR,1710439161
397,nishinoomote,30.7333,131.0,14.59,50,73,5.25,JP,1710439161
398,urangan,-25.3,152.9,22.89,96,22,2.68,AU,1710439161
399,dunedin,-45.8742,170.5036,8.78,92,100,3.58,NZ,1710439161
400,ust'-kulom,61.6864,53.6902,-5.41,98,100,1.63,RU,1710439161
401,mejit,10.2753,170.8646,26.34,78,100,8.49,MH,1710438871
402,holyhead,53.3062,-4.6321,11.1,100,100,10.8,GB,1710439161
403,cockburn town,21.4612,-71.1419,26.98,69,40,6.17,TC,1710439162
404,boa vista,2.8197,-60.6733,34.99,38,40,5.66,BR,1710439162
405,freetown,8.484,-13.2299,27.39,66,69,4.85,SL,1710438901
406,kotri,25.366,68.3122,24.88,13,0,5.6,PK,1710439162
407,kuching,1.55,110.3333,28.34,96,20,1.03,MY,1710439162
408,ilabaya,-17.4208,-70.5133,25.5,62,83,5.1,PE,1710439162
409,mount gambier,-37.8333,140.7667,11.98,79,6,4.04,AU,1710438872
410,itarantim,-15.6597,-40.0656,32.08,45,13,2.07,BR,1710439163
411,naracoorte,-36.9579,140.7383,12.0,81,0,5.81,AU,1710439163
412,mitu,1.1983,-70.1733,35.9,41,28,1.31,CO,1710439163
413,holualoa,19.6228,-155.9522,22.65,72,4,0.83,US,1710439163
414,lerwick,60.1545,-1.1494,7.0,72,92,3.21,GB,1710439163
415,iguape,-24.7081,-47.5553,27.88,71,19,5.3,BR,1710439163
416,puerto maldonado,-12.6,-69.1833,35.22,63,40,2.57,PE,1710439163
417,inhambane,-23.865,35.3833,25.64,86,74,4.58,MZ,1710439163
418,abepura,-2.6333,140.5833,24.45,100,40,0.51,ID,1710439164
419,meget,52.415,104.0494,-7.58,95,100,1.33,RU,1710439164
420,aksuat,48.7167,83.7,-5.46,99,100,2.14,KZ,1710439164
421,tughyl,47.7252,84.2063,-2.4,96,81,6.14,KZ,1710439164
422,jieshi,22.8134,115.8257,17.66,84,99,5.79,CN,1710439164
423,dubbo,-32.25,148.6167,23.07,68,78,4.63,AU,1710439164
424,pingliang,35.5392,106.6861,6.08,73,32,2.55,CN,1710439164
425,seguela,7.9611,-6.6731,25.7,83,89,1.46,CI,1710439165
426,new norfolk,-42.7826,147.0587,7.72,96,0,1.16,AU,1710439165
427,ad dindar,13.2,34.1667,37.78,10,56,2.91,SD,1710439165
428,ghanzi,-21.5667,21.7833,27.6,25,60,2.77,BW,1710438899
429,as sulayyil,20.4607,45.5779,29.14,28,1,4.56,SA,1710439165
430,al burayqah,30.4062,19.5739,16.29,62,30,4.39,LY,1710439165
431,kudahuvadhoo,2.6708,72.8944,28.33,71,10,2.78,MV,1710438898
432,marquette,46.5333,-87.6335,4.03,87,96,2.68,US,1710439165
433,timmins,48.4669,-81.3331,0.9,86,100,5.14,CA,1710439165
434,phan rang-thap cham,11.5667,108.9833,21.99,90,17,2.09,VN,1710439166
435,stephenville,32.2207,-98.2023,25.69,69,97,2.24,US,1710439166
436,nueva gerona,21.8833,-82.8,29.48,56,27,6.52,CU,1710439166
437,kiruhura,-2.4773,29.7679,16.57,90,83,1.41,RW,1710439166
438,merta,26.65,74.0333,22.32,24,0,4.65,IN,1710439166
439,panama city beach,30.1766,-85.8055,26.12,68,40,5.66,US,1710439166
440,port alfred,-33.5906,26.891,18.43,93,31,4.61,ZA,1710439166
441,belyy yar,53.6039,91.3903,-5.06,63,0,4.0,RU,1710439167
442,jiazi,22.8779,116.067,17.35,84,99,5.34,CN,1710439167
443,trairi,-3.2778,-39.2689,30.49,66,93,4.32,BR,1710439167
444,sayat,38.7839,63.8803,0.93,43,5,4.92,TM,1710439167
445,korba,22.35,82.6833,23.53,20,0,2.75,IN,1710439167
446,abdulino,53.7,53.6667,-5.61,94,100,5.89,RU,1710438897
447,bhamo,24.2667,97.2333,21.47,41,43,0.47,MM,1710439167
448,mwinilunga,-11.7358,24.4293,18.89,93,100,0.82,ZM,1710439167
449,mermoz boabab,14.7065,-17.4758,30.31,64,0,6.17,SN,1710439167
450,lata,40.1629,-8.3327,16.71,86,82,2.26,PT,1710439168
451,de aar,-30.6497,24.0123,22.0,23,27,4.79,ZA,1710439168
452,orange walk,17.8333,-88.8333,33.17,42,100,5.41,BZ,1710439168
453,yarkovo,57.4028,67.0786,-5.01,96,100,3.16,RU,1710439168
454,houlton,46.1262,-67.8403,5.96,68,100,2.8,US,1710439168
455,conceicao da barra,-18.5933,-39.7322,28.27,68,89,3.02,BR,1710439168
456,la resolana,19.6,-104.4333,33.72,13,58,1.85,MX,1710439168
457,geraldton,-28.7667,114.6,28.23,57,0,6.69,AU,1710439169
458,nuuk,64.1835,-51.7216,-3.4,73,73,1.34,GL,1710439169
459,bulgan,48.8125,103.5347,-7.7,85,100,1.15,MN,1710439169
460,amahai,-3.3333,128.9167,26.46,81,100,2.63,ID,1710439169
461,saynshand,44.8824,110.1163,-4.23,79,13,6.54,MN,1710439169
462,lesogorsk,56.0458,99.5136,-15.04,100,96,1.34,RU,1710439169
463,severo-yeniseyskiy,60.3725,93.0408,-9.12,87,100,4.47,RU,1710439170
464,zahedan,29.4963,60.8629,11.95,35,0,4.12,IR,1710439170
465,betio village,1.358,172.9211,26.02,84,99,6.62,KI,1710439170
466,shenjiamen,29.9576,122.298,10.7,90,100,2.8,CN,1710439170
467,finale ligure,44.1695,8.3436,14.74,84,65,4.92,IT,1710439170
468,faro,37.0194,-7.9322,18.43,88,20,3.09,PT,1710438943
469,pointe michel,15.25,-61.3833,30.52,54,40,1.03,DM,1710439171
470,hirara,24.8,125.2833,17.15,77,63,2.57,JP,1710439171
471,bom jesus,-9.0744,-44.3586,35.63,36,96,2.36,BR,1710439171
472,bhimunipatnam,17.8833,83.4333,25.77,80,11,5.13,IN,1710439171
473,kuusamo,65.9667,29.1833,1.02,93,100,6.69,FI,1710439171
474,khovd,48.0056,91.6419,-0.76,24,100,2.97,MN,1710439171
475,the pas,53.8251,-101.2541,-2.99,63,100,2.06,CA,1710439171
476,sampang,-7.1872,113.2394,26.44,87,100,6.82,ID,1710439171
477,palghar,19.6833,72.75,22.83,72,0,3.68,IN,1710438903
478,pitimbu,-7.4706,-34.8086,27.33,74,75,5.32,BR,1710439172
479,san julian,21.0167,-102.1667,25.91,9,42,6.58,MX,1710439172
480,san giovanni rotondo,41.7049,15.7191,4.56,59,41,1.03,IT,1710439172
481,morondava,-20.2833,44.2833,28.8,79,0,4.51,MG,1710439172
482,lashio,22.9333,97.75,15.56,42,3,0.54,MM,1710439172
483,arkalyk,50.2486,66.9114,-10.95,98,100,6.23,KZ,1710439172
484,port shepstone,-30.7414,30.455,20.46,81,55,2.5,ZA,1710439172
485,labuan,5.2767,115.2417,27.2,83,20,2.24,MY,1710439173
486,kushiro,42.975,144.3747,-2.47,80,84,1.03,JP,1710439173
487,embarcacion,-23.209,-64.096,38.81,37,41,2.38,AR,1710439173
488,taoudenni,22.6783,-3.9836,32.22,9,0,4.09,ML,1710439173
489,brisas de zicatela,15.8369,-97.0419,29.68,58,58,5.67,MX,1710439173
490,chu,43.5983,73.7614,-4.2,91,74,3.13,KZ,1710439173
491,port saint john's,-31.6229,29.5448,20.04,81,24,1.35,ZA,1710439173
492,cavan,53.9908,-7.3606,10.96,95,100,5.31,IE,1710439173
493,howrah,22.5892,88.3103,28.0,83,40,5.14,IN,1710438887
494,den helder,52.9599,4.7593,13.32,73,100,5.66,NL,1710439174
495,benguela,-12.5763,13.4055,27.15,81,40,2.5,AO,1710439174
496,kuta,-8.7233,115.1723,27.97,88,75,2.68,ID,1710439174
497,grand-bassam,5.2118,-3.7388,28.98,80,54,4.25,CI,1710439174
498,whakatane,-37.9585,176.9854,18.62,98,81,0.97,NZ,1710439174
499,aldinga beach,-35.2793,138.4604,18.9,73,57,7.33,AU,1710439174
500,vryburg,-26.9566,24.7284,21.67,12,1,3.83,ZA,1710439175
501,east end,34.5507,-92.341,23.94,85,96,0.45,US,1710439175
502,sydney mines,46.2367,-60.2177,5.08,83,75,4.12,CA,1710439175
503,suzun,53.7841,82.3116,-12.03,95,100,3.62,RU,1710439175
504,tavda,58.0425,65.2726,-3.34,96,100,2.88,RU,1710438961
505,antsiranana,-12.2787,49.2917,26.34,85,13,5.41,MG,1710439175
506,platteville,42.7342,-90.4785,6.8,97,100,10.29,US,1710439175
507,piti village,13.4626,144.6933,26.05,80,100,7.15,GU,1710439175
508,fortuna,40.5982,-124.1573,14.08,91,0,0.0,US,1710439175
509,jincheng,35.5022,112.8328,8.66,66,9,1.66,CN,1710439176
510,khark,29.2614,50.3306,19.52,76,100,3.56,IR,1710438934
511,slave lake,55.2834,-114.769,2.99,65,0,1.54,CA,1710439176
512,oeiras,-7.0253,-42.1311,31.11,67,100,1.52,BR,1710439098
513,general acha,-37.377,-64.6043,26.12,22,0,4.56,AR,1710439176
514,kota,25.1833,75.8333,24.08,24,0,1.56,IN,1710439176
515,dryden,49.7833,-92.7503,2.16,64,0,2.57,CA,1710439176
516,beja,36.7256,9.1817,17.36,73,0,1.79,TN,1710439177
517,luderitz,-26.6481,15.1594,17.46,76,5,6.59,NA,1710439177
518,berezovyy,51.6667,135.7,-10.96,96,99,1.83,RU,1710439177
519,saldanha,-33.0117,17.9442,22.03,82,62,7.1,ZA,1710439177
520,kapuskasing,49.4169,-82.4331,-2.95,86,100,4.12,CA,1710439177
521,dolinsk,47.35,142.8,-11.82,94,31,2.87,RU,1710439177
522,maragogi,-9.0122,-35.2225,29.46,71,96,4.41,BR,1710439177
523,al mishkhab,31.8042,44.4911,23.06,26,75,6.53,IQ,1710439051
524,sinabang,2.4803,96.3801,26.74,81,99,1.42,ID,1710439178
525,tazacorte,28.629,-17.9293,20.64,79,75,2.57,ES,1710439178
526,shangrao,28.4532,117.9686,12.63,88,100,1.51,CN,1710439178
527,yaren,-0.5472,166.916,28.03,81,100,4.75,NR,1710439178
528,cape coast,5.1053,-1.2466,28.55,83,74,7.26,GH,1710439178
529,dzhetygara,52.1908,61.2006,-6.45,91,77,7.35,KZ,1710439178
530,trinity beach,-16.7888,145.6968,25.01,93,38,0.51,AU,1710439178
531,nar'yan-mar,67.6713,53.087,-14.38,96,79,3.13,RU,1710438971
532,bago,17.3367,96.4797,24.73,78,7,1.49,MM,1710439179
533,qamdo,31.1667,97.2333,-0.53,43,68,2.74,CN,1710439179
534,happy valley-goose bay,53.3168,-60.3315,1.17,75,100,2.06,CA,1710439179
535,qusmuryn,52.4503,64.6311,-10.31,96,57,4.03,KZ,1710439076
536,clarkston heights-vineland,46.3874,-117.083,8.69,95,61,1.72,US,1710439179
537,arraias,-12.9288,-46.9437,30.95,52,11,0.79,BR,1710439179
538,sorong,-0.8833,131.25,27.54,81,100,6.69,ID,1710439179
539,taltal,-25.4,-70.4833,21.59,72,33,3.24,CL,1710439180
540,smara,26.7384,-11.6719,26.06,25,0,7.85,EH,1710439180
541,zeya,53.75,127.2667,-9.73,92,100,1.75,RU,1710439180
542,el abiodh sidi cheikh,32.893,0.5484,19.99,26,19,5.07,DZ,1710439180
543,amos,48.5669,-78.1162,1.44,100,100,1.21,CA,1710439180
544,chahuite,16.3,-94.1833,32.62,44,24,5.31,MX,1710439180
545,lyman,48.9884,37.8023,5.36,72,98,4.07,UA,1710439180
546,homer,59.6425,-151.5483,0.45,80,44,4.47,US,1710439181
547,new plymouth,-39.0667,174.0833,13.23,85,100,3.49,NZ,1710439181
548,raja,8.4596,25.678,33.62,23,66,1.45,SS,1710439181
549,katabu,-4.9333,122.5167,24.01,94,100,0.93,ID,1710439181
550,arkhangel'sk,64.5401,40.5433,1.06,100,100,4.0,RU,1710438963
551,rawson,-43.3002,-65.1023,21.38,24,0,9.5,AR,1710439181
552,okhotsk,59.3833,143.3,-17.13,72,5,9.51,RU,1710438959
553,kingscliff,-28.2667,153.5667,20.41,100,16,1.54,AU,1710439181
554,manuguru,17.981,80.7547,29.64,47,70,2.31,IN,1710439181
555,kaka,37.3482,59.6143,7.9,55,61,5.97,TM,1710439182
556,juneau,58.3019,-134.4197,4.12,100,100,3.14,US,1710439182
557,vradiyivka,47.862,30.5919,3.33,87,100,3.18,UA,1710439182
558,laojunmiao,39.8333,97.7333,2.23,40,91,0.59,CN,1710439182
559,port augusta,-32.5,137.7667,24.19,54,58,4.22,AU,1710439182
560,kourou,5.1552,-52.6478,31.03,61,26,3.69,GF,1710439182
561,ushachy,55.1786,28.6035,3.12,84,28,2.35,BY,1710439182
562,nova sintra,14.8667,-24.7167,23.67,70,0,6.69,CV,1710439182
563,marsh harbour,26.5412,-77.0636,22.92,68,50,4.73,BS,1710439183
